City_ID,City,Country,Max Temp,Current Description,Lat,Lng,Hotel Name
0,Sambava,MG,69.42,clear sky,-14.2667,50.1667,Melrose
1,Filadelfia,US,77.49,broken clouds,39.9523,-75.1638,"The Ritz-Carlton, Philadelphia"
2,Umm Lajj,SA,85.41,clear sky,25.0213,37.2685,Moon light Furnished Units
3,Vaini,TO,78.96,few clouds,-21.2,-175.2,Keleti Beach Resort
4,Banda Aceh,ID,84.72,overcast clouds,5.5577,95.3222,OYO 884 Rumoh PMI Hotel
7,Oktyabrskoye,RU,66.34,few clouds,43.0645,44.7417,Prolesok Mini-hotel
10,Kapaa,US,85.98,few clouds,22.0752,-159.319,Sheraton Kauai Coconut Beach Resort
11,Rikitea,PF,74.48,clear sky,-23.1203,-134.9692,People ThankYou
12,Champasak,LA,85.08,overcast clouds,14.75,106.0,Kiat Ngong Wetland BUNGALOW
14,Naze,JP,83.32,overcast clouds,28.3667,129.4833,Shishime Hotel
16,Atuona,PF,77.11,broken clouds,-9.8,-139.0333,Villa Enata
21,Sao Jose Da Coroa Grande,BR,74.14,broken clouds,-8.8978,-35.1478,Crôa Mares Hotel
22,Terralba,IT,71.78,clear sky,39.7192,8.6392,B&B Neverland
23,Bambous Virieux,MU,69.22,light rain,-20.3428,57.7575,Casa Tia Villa
25,Santa Isabel Do Rio Negro,BR,72.77,broken clouds,-0.4139,-65.0192,Hotel GSA
27,Burgos,ES,68.41,clear sky,42.3394,-3.7079,Hotel Corona de Castilla (Sercotel)
28,Ardon,RU,68.99,scattered clouds,43.17,44.29,Blossom
31,Yellowknife,CA,70.32,broken clouds,62.456,-114.3525,The Explorer Hotel
35,Virginia Beach,US,83.01,clear sky,36.8529,-75.978,Hilton Virginia Beach Oceanfront
37,Kahului,US,84.22,scattered clouds,20.8947,-156.47,Maui Seaside Hotel
39,Craig,US,76.62,clear sky,40.5153,-107.5464,"Candlewood Suites Craig-Northwest, an IHG Hotel"
40,Cabedelo,BR,74.07,scattered clouds,-6.9811,-34.8339,Pousada Camboinha
42,Alofi,NU,76.89,broken clouds,-19.0595,-169.9187,Taloa Heights
49,Yar-Sale,RU,66.58,overcast clouds,66.8333,70.8333,Yalemd
50,Vila Franca Do Campo,PT,75.2,broken clouds,37.7167,-25.4333,Pestana Bahia Praia
54,Praia Da Vitoria,PT,70.75,broken clouds,38.7333,-27.0667,Hotel Branco I
55,Derzhavinsk,KZ,77.13,clear sky,51.1,66.3167,Ooo.khim Baza
60,Hambantota,LK,86.34,few clouds,6.1241,81.1185,Bungalow 63
61,East London,ZA,67.14,clear sky,-33.0153,27.9116,Tu Casa
62,Santa Ana,US,86.52,scattered clouds,33.7456,-117.8678,"Motel 6 Santa Ana, CA"
64,Hithadhoo,MV,82.02,overcast clouds,-0.6,73.0833,Scoop Guest House
65,Mahebourg,MU,69.26,broken clouds,-20.4081,57.7,Shandrani Beachcomber Resort & Spa
70,Soto La Marina,MX,82.78,few clouds,23.7667,-98.2167,Hotel Chicago
71,Faanui,PF,76.33,light rain,-16.4833,-151.75,Bora-Bora Pearl Beach Resort & Spa
72,Butaritari,KI,82.49,broken clouds,3.0707,172.7902,Isles Sunset Lodge
73,Blacksburg,US,70.66,broken clouds,37.2296,-80.4139,Hilton Garden Inn Blacksburg University
74,Genc,TR,72.97,clear sky,38.7507,40.5603,Genc Ogretmenevi
76,Puerto Ayora,EC,68.56,broken clouds,-0.7393,-90.3518,Finch Bay Galapagos Hotel
77,Hasaki,JP,84.6,overcast clouds,35.7333,140.8333,Inubosaki Kanko Hotel
78,Ribeira Grande,PT,71.87,few clouds,38.5167,-28.7,Quinta da Meia Eira
81,Roma,US,70.72,overcast clouds,43.2128,-75.4557,Wingate By Wyndham Rome
82,Saint-Philippe,RE,67.59,light rain,-21.3585,55.7679,"Chambres d'hôte ""La Trinité"""
84,Hilo,US,75.25,moderate rain,19.7297,-155.09,Hilo Hawaiian Hotel
86,Pangody,RU,68.59,scattered clouds,65.85,74.4859,Elizaveta Shevchuk's House
88,Hashtrud,IR,74.75,clear sky,37.4779,47.0508,Hashtrud Farhangian Club
89,Bengkulu,ID,84.07,scattered clouds,-3.8004,102.2655,Grage Hotel Bengkulu
90,Piacabucu,BR,73.69,clear sky,-10.4056,-36.4344,Piaçabuçu News
92,Arraial Do Cabo,BR,69.19,overcast clouds,-22.9661,-42.0278,Pousada Porto Praia
93,Vanimo,PG,82.02,broken clouds,-2.6741,141.3028,Vahmoneh Lodge Vanimo
95,Georgetown,MY,86.9,moderate rain,5.4112,100.3354,Cititel Penang
96,Caravelas,BR,69.66,few clouds,-17.7125,-39.2481,Pousada dos Navegantes
98,Natal,BR,77.22,moderate rain,-5.795,-35.2094,Villa Park Hotel | Natal
101,Touros,BR,74.77,moderate rain,-5.1989,-35.4608,INN NEW HORIZON
102,The Valley,AI,82.26,clear sky,18.217,-63.0578,CeBlue Villas & Beach Resort
104,Alamosa,US,73.38,few clouds,37.4695,-105.87,Best Western Alamosa Inn
105,Bethel,US,75.07,overcast clouds,41.3712,-73.414,Courtyard by Marriott Danbury
106,Kirakira,SB,83.35,scattered clouds,-10.4544,161.9205,SanBiz Lodge
107,Saint Pete Beach,US,84.99,clear sky,27.7253,-82.7412,Sirata Beach Resort
109,Padang,ID,82.45,moderate rain,-0.9492,100.3543,Mercure Padang
110,Vao,NC,72.86,overcast clouds,-22.6667,167.4833,Hotel Kou-Bugny
112,Souillac,MU,68.38,light rain,-20.5167,57.5167,Shanti Maurice Resort & Spa
113,Bathsheba,BB,81.21,scattered clouds,13.2167,-59.5167,Atlantis Hotel
114,Balkhash,KZ,75.81,broken clouds,46.844,74.9804,Family
116,Cayenne,GF,77.09,clear sky,4.9333,-52.3333,Hôtel Le Dronmi
120,Progreso,MX,80.71,clear sky,21.2833,-89.6667,Playa Linda Hotel
123,Samarai,PG,81.63,scattered clouds,-10.6167,150.6667,Nuli Sapi
125,Komsomolskiy,UZ,88.52,clear sky,40.4272,71.7189,Ikathouse
127,Guane,CU,78.1,clear sky,22.2025,-84.0875,base de Campismo LosPortales de Guane
128,Salalah,OM,75.29,light intensity drizzle,17.0151,54.0924,"HAMDAN PLAZA HOTEL SALALAH, an HTG Hotel"
131,San Cristobal,VE,68.18,overcast clouds,7.7669,-72.225,Pirineos
133,Marrakesh,MA,78.87,few clouds,31.6315,-8.0083,Les Jardins de La Koutoubia
135,Pacific Grove,US,65.88,clear sky,36.6177,-121.9166,Lovers Point Inn
137,Santarem,BR,77.13,broken clouds,-2.4431,-54.7083,Hotel Imperador
142,San Jose,US,81.68,few clouds,37.3394,-121.895,The Westin San Jose
145,Harper,LR,73.9,overcast clouds,4.375,-7.7169,Screensaver
148,Mumford,GH,73.99,scattered clouds,5.2618,-0.759,Spanish Villa
149,Kurchum,KZ,73.4,clear sky,48.5722,83.6542,"""Kneda"" Hotel"
150,Brownsville,US,84.15,clear sky,25.9018,-97.4975,Best Western Hotel Plaza Matamoros
151,Yulara,AU,71.74,clear sky,-25.2406,130.9889,Desert Gardens Hotel - Ayers Rock Resort
152,Liverpool,GB,76.28,few clouds,53.4106,-2.9779,Premier Inn Liverpool City Centre (Moorfields) hotel
154,Ambulu,ID,83.39,scattered clouds,-8.345,113.6058,Hotel Ambulu Jember
156,Avarua,CK,75.25,scattered clouds,-21.2078,-159.775,Paradise Inn
157,Aden,YE,83.07,overcast clouds,12.7794,45.0367,Sama Emirate Hotel
159,Dingle,PH,81.68,overcast clouds,10.9995,122.6711,SEGAYA PROPERTY
160,Zaraza,VE,72.77,scattered clouds,9.3503,-65.3245,Hotel Zaraza
162,Jamestown,US,71.19,few clouds,42.097,-79.2353,Hampton Inn & Suites Jamestown
164,Coloso,CO,76.51,overcast clouds,9.4915,-75.3615,CALLE LAS FLORES COLOSO
165,Northam,GB,69.26,broken clouds,51.0333,-4.2167,Durrant House Hotel
167,Kefamenanu,ID,79.48,broken clouds,-9.4467,124.4781,Sokowindo Losmen
168,Cairns,AU,81.07,clear sky,-16.9167,145.7667,Mantra Trilogy Cairns
170,Benemerito De Las Americas,MX,73.33,overcast clouds,16.5167,-90.6439,Residencia Univeresitaria
173,Ponta Do Sol,PT,68.72,clear sky,32.6667,-17.1,Hotel do Campo
176,Havre,FR,82.17,clear sky,49.5833,0.3333,gite bois jourdain
177,Emerald,AU,71.35,clear sky,-23.5333,148.1667,The Irish Village
178,Portobelo,PA,80.11,broken clouds,9.55,-79.65,Scuba Portobelo
179,Mandalgovi,MN,82.65,overcast clouds,45.7625,106.2708,В.Ганбат
181,Kudahuvadhoo,MV,82.06,moderate rain,2.6708,72.8944,Niyama Private Islands Maldives
182,Sao Gabriel Da Cachoeira,BR,71.67,broken clouds,-0.1303,-67.0892,Alarne - Área De Lazer Do Alto Rio Negro
183,Hamilton,US,74.17,mist,39.1834,-84.5333,Six Acres Bed & Breakfast
184,Cabo San Lucas,MX,87.1,clear sky,22.8909,-109.9124,Hotel Tesoro Los Cabos
186,Skibbereen,IE,66.11,overcast clouds,51.55,-9.2667,The West Cork Hotel
188,Linxia,CN,70.97,clear sky,35.6003,103.2064,GreenTree Inn Linxia Autonomous Prefecture Linxia Oxford River Avenue Express Hotel
189,Quatre Cocos,MU,69.1,light rain,-20.2078,57.7625,Sunrise Attitude Hotel
190,Lorengau,PG,81.18,overcast clouds,-2.0226,147.2712,Lorengau Harbourside Hotel
193,Belle Glade,US,80.01,overcast clouds,26.6845,-80.6676,Mid-City Trailer Park
194,Koroni,GR,78.51,clear sky,36.8,21.95,Apartments Xenios Zeus 1
195,Mareeba,AU,76.44,clear sky,-17.0,145.4333,Trinity Plains Tourist Park
196,Carutapera,BR,74.17,scattered clouds,-1.195,-46.02,Lidera
198,Baruun-Urt,MN,79.23,broken clouds,46.6806,113.2792,Ахмадын амралт сувилал
199,Gboko,NG,71.06,overcast clouds,7.3179,8.9951,Mavillah Apartment and Suites
202,Malartic,CA,71.71,light rain,48.1335,-78.1328,Camping Regional De Malartic
208,Mae Hong Son,TH,89.74,scattered clouds,19.3003,97.9685,Baiyoke Chalet Hotel
212,Carora,VE,75.63,overcast clouds,10.1755,-70.0827,Hotel Irpinia
213,Kouroussa,GN,70.75,overcast clouds,10.65,-9.8833,Hotel Tando Plus
214,Marawi,PH,75.67,overcast clouds,7.9986,124.2928,Derogongan Residence
216,Lagoa,PT,68.65,overcast clouds,39.05,-27.9833,Casa Das Faias
218,Broome,US,72.01,overcast clouds,42.2506,-75.833,Chenango Valley State Park
219,Alihe,CN,74.7,overcast clouds,50.5667,123.7167,Alihe Forestry Hotel
220,Abu Kamal,SY,89.98,clear sky,34.4506,40.9171,البوكمال
221,Monopoli,IT,78.71,clear sky,40.9559,17.2896,Il Melograno
224,Southbridge,US,74.55,moderate rain,42.0751,-72.0334,Southbridge Hotel & Conference Center
226,Faya,SA,66.31,broken clouds,18.3851,42.4509,املاك خالد الشعشوع
227,Arlit,NE,87.91,overcast clouds,18.7369,7.3853,Case de Passage De la Prefecture
228,Pizarro,CO,78.06,overcast clouds,4.9533,-77.366,Hotel Limonar
229,Worland,US,86.9,clear sky,44.0169,-107.9554,Town House Motor Inn
232,Karratha,AU,79.43,clear sky,-20.7377,116.8463,ibis Styles Karratha
233,Rincon,US,80.83,clear sky,32.296,-81.2354,Days Inn Rincon
234,Hobyo,SO,75.61,overcast clouds,5.3505,48.5268,Iftin hotel hobyo
236,Vrangel,RU,68.7,overcast clouds,42.7297,133.0839,"Отель ""БАЛИ"""
242,Jacmel,HT,84.04,clear sky,18.2342,-72.5347,Historic Hotel Florita
243,Marsh Harbour,BS,81.88,clear sky,26.5412,-77.0636,Abaco Beach Resort
245,Vila Do Maio,CV,75.99,overcast clouds,15.1333,-23.2167,Hotel Marilu
246,Sault Sainte Marie,CA,68.56,clear sky,46.5168,-84.3333,Comfort Inn
251,Katsuura,JP,78.82,heavy intensity rain,35.1333,140.3,Katsuura Hotel Mikazuki
256,Port Blair,IN,84.24,scattered clouds,11.6667,92.75,"Welcomhotel By ITC Hotels, Bay Island, Port Blair"
258,Novobiryusinskiy,RU,65.88,light rain,56.9578,97.7076,Gostinitsa
259,Raymondville,US,84.31,clear sky,26.4815,-97.7831,La Quinta Inn & Suites by Wyndham Raymondville
261,Sao Joao Da Barra,BR,70.27,scattered clouds,-21.6403,-41.0511,Pousada Porto De Canoas
263,Mananjary,MG,67.8,light rain,-21.2167,48.3333,Vahiny Lodge
265,Pimenta Bueno,BR,70.36,few clouds,-11.6725,-61.1936,Cristalina Palace Hotel
266,Sao Filipe,CV,74.97,overcast clouds,14.8961,-24.4956,Hotel Xaguate
268,Puerto Leguizamo,CO,70.25,broken clouds,-0.1934,-74.7819,la casona de juancho
274,Hailey,US,75.06,clear sky,43.5196,-114.3153,Wood River Inn & Suites
275,Carnarvon,AU,71.96,clear sky,-24.8667,113.6333,Hospitality Carnarvon
276,Adiake,CI,74.12,overcast clouds,5.2863,-3.304,HOTEL COEUR D'OR
277,Canchungo,GW,77.16,moderate rain,12.0672,-16.0333,Aparthotel Napalach
278,Dhidhdhoo,MV,82.13,overcast clouds,6.8833,73.1,Dhidhoo beach
279,Rock Sound,BS,81.75,clear sky,24.9,-76.2,Pink Corral Bay Property
280,Thompson,CA,69.96,scattered clouds,55.7435,-97.8558,Burntwood Hotel
283,Sidi Ali,DZ,72.82,clear sky,36.0998,0.4206,Complexe touristique haje bezine
284,Sioux Lookout,CA,71.67,smoke,50.1001,-91.917,Knobby's Fly-In Camps
286,Jiblah,YE,69.19,overcast clouds,13.9216,44.1467,Tiger Tower Hotel
289,Zhezkazgan,KZ,76.98,clear sky,47.8043,67.7144,Hotel Zumrat
291,Tomatlan,MX,77.95,broken clouds,19.9333,-105.25,El Salvial
292,Atikokan,CA,65.03,scattered clouds,48.7555,-91.6216,Quetico Inn (formerly Radisson)
293,Goderich,CA,70.12,clear sky,43.7501,-81.7165,Harmony Inn
298,Bayshore Gardens,US,84.99,overcast clouds,27.4253,-82.5904,Ramada by Wyndham Sarasota Waterfront
299,Boa Vista,BR,78.78,broken clouds,2.8197,-60.6733,Aipana Plaza Hotel
300,Tondano,ID,78.89,overcast clouds,1.3038,124.9112,Villa Bella
302,Avanigadda,IN,88.63,broken clouds,16.0215,80.9181,AP Camping
305,Lincoln,US,79.14,clear sky,40.8,-96.667,Courtyard by Marriott Lincoln Downtown/Haymarket
306,Pangai,TO,75.31,light intensity shower rain,-19.8,-174.35,Ha'apai Beach Resort
309,Ewo,CG,75.33,light rain,-0.8725,14.8206,Residence Elonda Ewo
310,Tarare,FR,71.62,scattered clouds,45.8976,4.4327,Le Saint Clement
311,Dongsheng,CN,73.49,overcast clouds,39.8161,109.9776,Crowne Plaza Ordos
312,Kavaratti,IN,80.76,overcast clouds,10.5669,72.642,Green leaf
313,Benguela,AO,66.63,clear sky,-12.5763,13.4055,Hotel Praia Morena
316,Saint-Georges,GD,79.61,few clouds,12.0564,-61.7485,Radisson Grenada Beach Resort
317,Kati,ML,74.61,scattered clouds,12.7441,-8.0726,Lingot d’or
319,Belmonte,BR,71.49,broken clouds,-15.8631,-38.8828,Pousada Monte Carmelo O Pão
324,Kavieng,PG,82.76,light rain,-2.5744,150.7967,Nusa Island Retreat
325,Tuktoyaktuk,CA,66.2,overcast clouds,69.4541,-133.0374,End of The Road Ltd.
326,Ta Khmau,KH,87.85,scattered clouds,11.4833,104.95,Takhmao Good Health Hotel
327,Elmira,US,73.72,broken clouds,42.0898,-76.8077,Mark Twain Motor Inn
331,Guerrero Negro,MX,70.84,scattered clouds,27.9769,-114.0611,"Casa Laguna, Bed & Breakfast"
332,Nanakuli,US,80.55,overcast clouds,21.3906,-158.1547,Camp Pālehua
336,Gimli,CA,78.82,broken clouds,50.6336,-96.9907,Lakeview Gimli Resort
337,Mazagao,BR,75.25,broken clouds,-0.115,-51.2894,Recanto dos Ferreiras
338,Sarangani,PH,82.65,light rain,5.4033,125.4636,JVL Inn and Cafeteria
339,Teguise,ES,68.22,clear sky,29.0605,-13.564,B&B La Casona de Nazaret
340,Talnakh,RU,65.21,broken clouds,69.4865,88.3972,Talnakh Hotel
342,Zeya,RU,76.08,light rain,53.75,127.2667,Kapital Inn
344,Meulaboh,ID,83.08,overcast clouds,4.1363,96.1285,Kost Pria
345,Half Moon Bay,US,73.31,mist,37.4636,-122.4286,"The Ritz-Carlton, Half Moon Bay"
347,Mana,GF,77.14,overcast clouds,5.6592,-53.7767,LE SAMANA
348,San Patricio,US,84.83,clear sky,28.017,-97.5169,"Motel 6 Sinton, TX"
349,Oussouye,SN,78.98,overcast clouds,12.485,-16.5469,Auberge du Routard
350,Grafton,US,74.71,light rain,42.207,-71.6856,The Grafton Inn
352,Hoffman Estates,US,79.52,clear sky,42.0428,-88.0798,Hilton Garden Inn Schaumburg
355,Konolfingen,CH,65.77,clear sky,46.8791,7.6201,Schloss Hünigen
356,Tiarei,PF,78.82,light rain,-17.5333,-149.3333,Le Rocher de Tahiti
357,Ayagoz,KZ,73.78,clear sky,47.9714,80.4392,ХАН
358,Price,US,83.46,clear sky,39.5994,-110.8107,National 9 - Price River Inn
362,Praia,CV,75.74,broken clouds,14.9215,-23.5087,LT Aparthotel
367,Griffith,US,79.9,clear sky,41.5284,-87.4237,Apartment above Depot Bar
369,Hanyang,CN,67.23,overcast clouds,32.1371,105.5126,Forestry Hostel
372,Dudinka,RU,65.62,broken clouds,69.4058,86.1778,Hotel Viktoria
373,Kutum,SD,75.06,broken clouds,14.2,24.6667,Dibbo areaمنطقة دبو
374,Pathein,MM,87.73,overcast clouds,16.7833,94.7333,Pathein Hotel
375,Santa Rita,BR,74.07,scattered clouds,-7.1139,-34.9781,Infinity Motel
376,Sao Sebastiao,BR,68.36,overcast clouds,-23.76,-45.4097,Hotel Recanto dos Pássaros
377,Bensonville,LR,72.99,overcast clouds,6.4461,-10.6125,Moinga
378,Atambua,ID,80.46,broken clouds,-9.1061,124.8925,Kost Alfa Flat
380,Carmarthen,GB,80.53,broken clouds,51.8555,-4.3054,Ivy Bush Royal Hotel by Compass Hospitality
382,Buchanan,LR,74.86,overcast clouds,5.8808,-10.0467,Kamaneahn Hotel Inc
384,Benicarlo,ES,78.91,clear sky,40.4165,0.4271,Hotel & Spa Peñíscola Plaza Suites
387,Aranda De Duero,ES,66.06,clear sky,41.6704,-3.6892,Hotel Villa de Aranda
388,La Cruz,MX,79.7,overcast clouds,23.9167,-106.9,Jesús angel
389,Point Pleasant,US,79.97,light rain,40.0832,-74.0682,Point Pleasant Manor
390,Gizo,SB,84.29,broken clouds,-8.103,156.8419,Imagination Island
391,Lompoc,US,75.02,clear sky,34.6391,-120.4579,"Holiday Inn Express Lompoc, an IHG Hotel"
394,Atlantic City,US,78.98,scattered clouds,39.3643,-74.4229,Courtyard by Marriott Atlantic City Beach Block
395,Makakilo City,US,79.12,light rain,21.3469,-158.0858,Marriott's Ko Olina Beach Club
396,Eastbourne,GB,73.09,clear sky,50.7687,0.2845,Grand Hotel
398,Sao Felix Do Xingu,BR,70.2,few clouds,-6.6447,-51.995,Rio Xingu Camping
399,Labuhan,ID,85.66,scattered clouds,-6.8844,112.2051,DoubleFAG
408,La Roche-Sur-Yon,FR,77.27,scattered clouds,46.6667,-1.4333,"The Originals City, Hôtel Napoléon, La Roche-sur-Yon (Inter-Hotel)"
409,Taybad,IR,89.98,clear sky,34.74,60.7756,لی پوش jean center
410,Bundaberg,AU,73.22,clear sky,-24.85,152.35,Takalvan Motel
413,Along,IN,76.5,light rain,28.1667,94.7667,Hotel West
415,Sosva,RU,72.54,clear sky,59.1766,61.8558,Gostinitsa
416,Norman Wells,CA,66.24,broken clouds,65.282,-126.8329,Heritage Hotel
417,Muisne,EC,73.72,overcast clouds,0.6,-80.0333,Quinta Samay
418,Robertsport,LR,76.95,light rain,6.7533,-11.3686,Kwepunha Retreat
419,Artesia,US,85.48,clear sky,33.8658,-118.0831,Sheraton Cerritos Hotel
420,Palaikastron,GR,72.77,clear sky,35.2,26.25,Marina Village
422,Gat,IL,77.4,clear sky,31.61,34.7642,OlusHome
424,Mackenzie,CA,68.22,broken clouds,55.2999,-123.1698,Hilton Shop
425,San Quintin,MX,69.12,clear sky,30.4833,-115.95,Don Eddie's Sport Fishing Center
426,Naranjal,EC,70.29,overcast clouds,-2.6667,-79.6167,Media Naranja
428,Vila Velha,BR,66.94,scattered clouds,-20.3297,-40.2925,Hotel Vitória Palace
429,Kamiiso,JP,75.58,broken clouds,41.8167,140.65,Business Inn Abe
430,Waingapu,ID,83.5,broken clouds,-9.6567,120.2641,Pondok Wisata Elim
431,Hot Springs,US,89.31,few clouds,34.5037,-93.0552,Embassy Suites by Hilton Hot Springs Hotel & Spa
432,Singojuruh,ID,79.61,broken clouds,-8.3167,114.2333,Rumah Nita Selvia
434,Namatanai,PG,85.28,broken clouds,-3.6667,152.4333,Seagulls Inn Namatani
435,Jumla,NP,72.61,broken clouds,29.2747,82.1838,Royal Garden Hotel
436,Haapiti,PF,78.53,clear sky,-17.5667,-149.8667,Linareva Moorea Beach Resort
439,Atar,MR,88.99,clear sky,20.5169,-13.0499,Oumou Elghoura
440,Shiyan,CN,76.28,overcast clouds,32.6475,110.7781,Fenghuang Garden Holiday Hotel
441,Drumheller,CA,65.12,overcast clouds,51.4617,-112.7101,Ramada by Wyndham Drumheller Hotel & Suites
443,Winneba,GH,73.08,scattered clouds,5.3511,-0.6231,Windy Lodge & Beach Resort
445,Nizwa,OM,87.4,scattered clouds,22.9333,57.5333,Orient Apartments
446,Riverton,US,83.44,clear sky,40.5219,-111.9391,Ramada by Wyndham Draper
447,Mingaora,PK,83.73,broken clouds,34.7758,72.3625,Burj Al Swat
449,Buraydah,SA,82.85,clear sky,26.326,43.975,Mövenpick Qassim
450,Saint-Joseph,RE,66.58,light rain,-21.3667,55.6167,"""Plantation Bed and Breakfast"
452,Springdale,US,84.11,clear sky,36.1867,-94.1288,Springdale Inn
456,Shimoda,JP,80.96,overcast clouds,34.6667,138.95,Shimoda Tokyu Hotel
458,Paranaiba,BR,70.52,overcast clouds,-19.6772,-51.1908,Villa Rica Park Hotel GMR
461,Cockburn Town,TC,82.36,scattered clouds,21.4612,-71.1419,Osprey Beach Hotel
462,Autazes,BR,78.08,broken clouds,-3.5797,-59.1306,Hotel Tupinambá
463,Oxford,GB,73.36,few clouds,51.7522,-1.256,Malmaison Oxford
464,Tura,IN,81.07,overcast clouds,25.5198,90.2201,Hotel RIKMAN Continental
468,Mankono,CI,70.48,overcast clouds,8.0586,-6.1897,Hôtel cotonputeur
469,Mackay,AU,66.69,clear sky,-21.15,149.2,International Lodge Motel
471,Jiuquan,CN,85.71,scattered clouds,39.7432,98.5174,Jiuquan Hotel
474,Tuy Hoa,VN,89.65,overcast clouds,13.0833,109.3,CenDeluxe Hotel Tuy Hoa
475,Linjiang,CN,77.34,scattered clouds,41.8069,126.9078,格林豪泰
476,Prichard,US,84.15,clear sky,30.7388,-88.0789,Best Inn Formerly Known as M Star Hotel
478,Puerto Del Rosario,ES,71.35,few clouds,28.5004,-13.8627,Hotel JM Puerto del Rosario
479,Puerto Madero,MX,81.97,scattered clouds,14.7208,-92.4215,DEPARTAMENTOS LA ESTANCIA
481,Scarborough,GB,71.91,broken clouds,54.2797,-0.4044,The Grand Hotel Scarborough
482,Sulangan,PH,81.25,overcast clouds,11.1373,123.7228,Maia's Beach Resort
485,Oranjestad,AW,80.55,few clouds,12.524,-70.027,Divi Village Golf & Beach Resort
487,Los Llanos De Aridane,ES,67.75,broken clouds,28.6585,-17.9182,Valle Aridane
489,San Fernando,PH,89.33,scattered clouds,15.0286,120.6898,Maharlika Hostel
490,Mayumba,GA,70.54,overcast clouds,-3.432,10.6554,LIKWALE LODGE
492,Kulhudhuffushi,MV,82.15,overcast clouds,6.6221,73.07,Haajy Guest House 1
495,Kieta,PG,84.56,overcast clouds,-6.2167,155.6333,Uruna Bay Retreat
496,Conde,BR,72.86,scattered clouds,-7.2597,-34.9075,Pousada Beija Flor
500,Charters Towers,AU,73.51,clear sky,-20.1,146.2667,Cattleman's Rest Motor Inn
501,Wladyslawowo,PL,66.0,overcast clouds,54.7909,18.4009,Gwiazda Morza Resort SPA&SPORT
505,Alyangula,AU,77.97,scattered clouds,-13.8483,136.4192,Groote Eylandt Lodge
508,Besikduzu,TR,73.29,overcast clouds,41.052,39.2284,Belek Palas Hotel
511,Kalugumalai,IN,87.13,overcast clouds,9.15,77.7167,Ganesh Bhavan(Sangu Hotel)
512,Mangaldai,IN,80.38,overcast clouds,26.4333,92.0333,Hotel Siddarth Palace
515,Akyab,MM,85.24,overcast clouds,20.15,92.9,Hotel Memory
517,Mayo,US,78.91,clear sky,38.8876,-76.5119,Resorts Resource Group International
519,Cleethorpes,GB,73.65,few clouds,53.5605,-0.0323,Comat Hotel
521,Sinnamary,GF,77.88,light rain,5.3833,-52.95,ALETHEIA Appartement Sinnamary
524,Isiro,CD,65.82,light rain,2.7739,27.616,Guest House Hewa Bora
525,Ayorou,NE,78.35,light rain,14.7308,0.9174,Hotel Amenokal
530,Vuktyl,RU,72.91,scattered clouds,63.8567,57.3094,Mini-Hotel Lokomotiv
532,Venice,US,84.99,broken clouds,27.0998,-82.4543,A Beach Retreat On Casey Key
534,Douentza,ML,84.72,light rain,14.9951,-2.9517,Ogomono Doumbo
535,Leh,IN,69.71,few clouds,34.1667,77.5833,Hotel Ladakh Greens
536,Saint Anthony,US,84.92,clear sky,45.0205,-93.218,"Holiday Inn Express Roseville-St. Paul, an IHG Hotel"
542,Lianyuan,CN,79.0,overcast clouds,27.6883,111.6642,Lianyuan Hotel
543,Rio De Janeiro,BR,71.6,broken clouds,-22.9028,-43.2075,Hotel cruz de ouro
544,Luganville,VU,82.27,few clouds,-15.5333,167.1667,The Espiritu Hotel
545,Altamont,US,84.04,clear sky,42.2068,-121.7372,Microtel Inn & Suites by Wyndham Klamath Falls
548,Pacifica,US,70.75,mist,37.6138,-122.4869,"Pacifica Lighthouse, Trademark Collection by Wyndham"
549,Flin Flon,CA,70.79,scattered clouds,54.7682,-101.865,Victoria Inn Flin Flon
550,Alice Springs,AU,72.95,clear sky,-23.7,133.8833,Desert Palms Alice Springs
552,Junagarh,IN,80.78,overcast clouds,19.8667,82.9333,Hotel Swagat
553,Khandbari,NP,78.33,overcast clouds,27.3747,87.2039,Sainik Hotel And Lodge
557,Escanaba,US,76.96,clear sky,45.7453,-87.0646,Sunset Lodge
558,Plaine Magnien,MU,69.4,broken clouds,-20.4286,57.6531,Holiday Inn Mauritius Mon Tresor
559,Sola,VU,84.87,broken clouds,-13.8833,167.55,Leumerus Bungalows
560,Znamenskoye,RU,68.67,broken clouds,57.1281,73.8282,"Gostinitsa ""Kolos"""
562,Mozarlandia,BR,69.82,clear sky,-14.7447,-50.5706,Hotel Santa Mônica
563,Sungairaya,ID,88.18,broken clouds,0.7,108.9,Rumah Kuku Moimoi Shelly
564,Shingu,JP,82.78,light rain,33.7333,135.9833,Shingu UI Hotel
568,Rancho Palos Verdes,US,79.41,clear sky,33.7445,-118.387,Terranea Resort
569,Veraval,IN,80.76,overcast clouds,20.9,70.3667,Lords Inn Somnath
570,Martapura,ID,86.09,scattered clouds,-3.4167,114.85,Montana Hotel Syariah
571,San Francisco,US,71.26,few clouds,37.7749,-122.4194,Edwardian Hotel
575,Kaduna,NG,67.53,overcast clouds,10.5222,7.4383,HAMDALA HOTEL
578,Pag,HR,73.98,scattered clouds,44.445,15.0575,Hotel Meridijan
579,Grand Gaube,MU,70.38,scattered clouds,-20.0064,57.6608,Veranda Paul et Virginie Hotel & Spa
581,Busayra,JO,71.91,clear sky,30.7376,35.6078,Matan Eco Villege
582,Port Moresby,PG,85.42,haze,-9.4431,147.1797,Lamana Hotel (Port Moresby)
583,Tantoyuca,MX,77.36,broken clouds,21.35,-98.2333,HOTEL VICTORIA
585,Ciudad Bolivar,VE,76.66,broken clouds,8.1222,-63.5497,Hotel Edi
587,Kundiawa,PG,69.84,overcast clouds,-6.0167,144.9667,Pari
588,Bugasong,PH,80.47,light rain,11.0439,122.0659,Jam's Family Restaurant and Tourist Inn
589,Mikuni,JP,80.51,moderate rain,36.2171,136.1519,Seifuso
590,Port-Gentil,GA,74.03,overcast clouds,-0.7193,8.7815,Fengshui Residence
591,Tautira,PF,76.21,light rain,-17.7333,-149.15,Pension Oaoa
593,Sabang,ID,82.99,overcast clouds,5.8933,95.3214,Hotel Citra
594,Yatou,CN,85.46,scattered clouds,37.15,122.3833,GreenTree Hotel Rongcheng Bus Station
595,Republic,US,82.2,clear sky,37.12,-93.4802,AmericInn by Wyndham Republic
597,Matara,LK,85.03,overcast clouds,5.9485,80.5353,Amaloh Boutique Resort
601,Havelock,US,84.18,few clouds,34.8791,-76.9013,Sherwood Motel
602,Pascagoula,US,84.2,clear sky,30.3658,-88.5561,Regency Inn
603,Isangel,VU,84.31,scattered clouds,-19.55,169.2667,Tanna Lodge
605,Narasannapeta,IN,86.41,broken clouds,18.4167,84.05,AVK events and catering
606,Idah,NG,69.55,broken clouds,7.1065,6.7342,Ubiga Hotel Idah
607,Sile,TR,70.57,clear sky,41.1754,29.6133,Phellos Suites
608,Maumere,ID,81.46,broken clouds,-8.6199,122.2111,Sylvia Hotel
609,Matay,EG,80.4,clear sky,28.419,30.7792,Nag Aespen
610,Lethem,GY,74.57,broken clouds,3.3803,-59.7968,Savannah Inn
611,Toamasina,MG,71.6,broken clouds,-18.1667,49.3833,Hotel H1
612,Mamallapuram,IN,89.65,overcast clouds,12.6264,80.1722,Radisson Blu Resort Temple Bay Mamallapuram
613,Cap Malheureux,MU,70.47,scattered clouds,-19.9842,57.6142,Pereybere Hotel & Spa
614,Chingirlau,KZ,78.46,clear sky,51.095,54.0814,Хостыл Аққу
615,Ayr,GB,66.18,overcast clouds,55.4627,-4.6339,Mercure Ayr Hotel
616,Nueva Loja,EC,69.89,broken clouds,0.0847,-76.8828,Limoncocha Great Hotel
617,Ambilobe,MG,70.68,clear sky,-13.2,49.05,Hôtel & Restaurant DIANA Ambilobe
618,Kolda,SN,77.31,few clouds,12.8833,-14.95,Hôtel Hobbe Chasse
620,Cateel,PH,85.01,overcast clouds,7.7914,126.4533,Edar's Place
626,Palu,ID,87.85,overcast clouds,-0.8917,119.8707,Hotel Santika Palu
627,Kununurra,AU,87.78,scattered clouds,-15.7667,128.7333,Hotel Kununurra
629,Ukiah,US,84.09,clear sky,39.1502,-123.2078,Hampton Inn Ukiah
631,Chushan,CN,81.18,overcast clouds,33.2955,113.6528,Mountain City Hotel
632,Jardim,BR,68.81,overcast clouds,-21.4803,-56.1381,Estancia Hotel - Jardim MS
633,Steinbach,DE,67.1,clear sky,50.1667,8.5667,Mercure Hotel Frankfurt Eschborn Helfmann Park
641,Antalaha,MG,66.0,light rain,-14.9003,50.2788,Hotel Vitasoa
644,Sun Valley,US,84.88,few clouds,39.5963,-119.776,Panther Valley RV Park
647,Bubaque,GW,78.75,moderate rain,11.2833,-15.8333,"Casa Dora, Bubaque"
648,Olga,RU,74.17,broken clouds,43.7444,135.2892,Gostinitsa Rosmorport.
649,Surt,LY,79.12,clear sky,31.2089,16.5887,الهادي ابوشعاله سرت
650,Nantucket,US,75.34,mist,41.2835,-70.0995,Jared Coffin House
651,Eydhafushi,MV,82.29,overcast clouds,5.1033,73.0708,Soneva Fushi
655,Wukari,NG,71.29,overcast clouds,7.85,9.7833,Elimtop
656,Road Town,VG,81.9,clear sky,18.4167,-64.6167,"ZINGARA 76ft Catamaran, full crew-all included"
657,Andra,RU,73.17,broken clouds,62.5147,65.8878,"Gostinitsa ""Ob'"""
663,Bom Jesus,BR,67.48,clear sky,-9.0744,-44.3586,Hotel Brasão & Floricultura Bella Flor
666,Margate,GB,74.7,clear sky,51.3813,1.3862,Premier Inn Margate hotel
667,Bud,US,75.22,clear sky,39.447,-86.1758,Ted McQuinn Trust
668,Nizhnyaya Poyma,RU,66.94,overcast clouds,56.1622,97.1933,Gostinitsa
669,Dwarka,IN,82.98,broken clouds,22.2394,68.9678,Hotel Narayan Avezika Comfort
670,Erzin,TR,78.51,clear sky,36.9559,36.2,Artemis Otel
672,Port Washington,US,80.2,broken clouds,40.8257,-73.6982,"The Roslyn, Tapestry Collection by Hilton"
673,Hagdan,PH,81.99,overcast clouds,11.3333,123.9,Chicco's Bed and Breakfast
678,Voh,NC,77.4,overcast clouds,-20.9667,164.7,Le gîte du Koniambo
680,Nouadhibou,MR,69.78,scattered clouds,20.931,-17.0347,El Medina
681,Athabasca,CA,73.81,light rain,54.7169,-113.2854,Athabasca Lodge Motel
682,Madingou,CG,67.82,broken clouds,-4.1536,13.55,HOTEL KIM ELISA
683,Slave Lake,CA,75.18,scattered clouds,55.2834,-114.769,Super 8 by Wyndham Slave Lake AB
684,Hays,US,89.6,clear sky,30.0502,-98.0336,Sinya on Lone Man Creek
685,Dauphin,CA,71.74,clear sky,51.1494,-100.0502,Canway Inn & Suites
686,Hay River,CA,75.18,overcast clouds,60.8156,-115.7999,Ptarmigan Inn
687,Amalapuram,IN,88.05,broken clouds,16.5833,82.0167,swayamprabha service apartments
690,Staunton,US,74.07,clear sky,38.1496,-79.0717,Hotel 24 South
691,Khash,IR,86.58,scattered clouds,28.2211,61.2158,خوابگاه آبجی محدثه
693,Ulaangom,MN,66.99,broken clouds,49.9811,92.0667,Achit Nuur Hotel & Restaurant
695,Ipatovo,RU,67.32,light rain,45.7181,42.9036,Ipatovo Inn
697,Tonj,SS,68.92,overcast clouds,7.2737,28.6822,Lakan Hotel
699,Mecca,SA,88.3,scattered clouds,21.4267,39.8261,"Makkah Clock Royal Tower, A Fairmont Hotel"
700,Yuanping,CN,81.25,overcast clouds,38.7153,112.7575,Yuanping Xinghe Guesthouse
702,Mount Isa,AU,76.77,clear sky,-20.7333,139.5,ibis Styles Mt Isa Verona
703,Khuzdar,PK,79.83,few clouds,27.7384,66.6434,jhalwan Rent A Car Compny Moola Chotok
